{"type":"FeatureCollection","features":[{"type":"Feature","id":1,"geometry":{"type":"Point","coordinates":[6.5506114696619386,52.200933282641813]},"properties":{"OBJECTID":1,"naam":"Hulst"}},{"type":"Feature","id":2,"geometry":{"type":"Point","coordinates":[6.5495985077071568,52.20108204126354]},"properties":{"OBJECTID":2,"naam":"Linde"}},{"type":"Feature","id":3,"geometry":{"type":"Point","coordinates":[6.5492005888854274,52.200747691699881]},"properties":{"OBJECTID":3,"naam":"Atlas Ceder"}},{"type":"Feature","id":4,"geometry":{"type":"Point","coordinates":[6.5478885346365425,52.200798671206854]},"properties":{"OBJECTID":4,"naam":"Moeraseik"}},{"type":"Feature","id":5,"geometry":{"type":"Point","coordinates":[6.5488532250779672,52.200851165353669]},"properties":{"OBJECTID":5,"naam":"Vaantjesboom"}},{"type":"Feature","id":6,"geometry":{"type":"Point","coordinates":[6.548905891809313,52.201154603261067]},"properties":{"OBJECTID":6,"naam":"Es"}},{"type":"Feature","id":7,"geometry":{"type":"Point","coordinates":[6.5489023429563309,52.201403347567002]},"properties":{"OBJECTID":7,"naam":"Peterselievlier"}},{"type":"Feature","id":8,"geometry":{"type":"Point","coordinates":[6.5497724482026491,52.201642352777043]},"properties":{"OBJECTID":8,"naam":"Witte Els"}},{"type":"Feature","id":9,"geometry":{"type":"Point","coordinates":[6.5499339703138881,52.201662927714722]},"properties":{"OBJECTID":9,"naam":"Witte Els"}},{"type":"Feature","id":10,"geometry":{"type":"Point","coordinates":[6.5502323610451096,52.201706343199596]},"properties":{"OBJECTID":10,"naam":"Witte Els"}},{"type":"Feature","id":11,"geometry":{"type":"Point","coordinates":[6.5505245487142432,52.202387428295154]},"properties":{"OBJECTID":11,"naam":"Linde"}},{"type":"Feature","id":12,"geometry":{"type":"Point","coordinates":[6.5508196435361477,52.201781949761177]},"properties":{"OBJECTID":12,"naam":"Rode Noorse Esdoorn"}},{"type":"Feature","id":13,"geometry":{"type":"Point","coordinates":[6.5519117097018027,52.201865545811266]},"properties":{"OBJECTID":13,"naam":"Noorse Esdoorn"}},{"type":"Feature","id":14,"geometry":{"type":"Point","coordinates":[6.5521037863170362,52.201891024300423]},"properties":{"OBJECTID":14,"naam":"Noorse Esdoorn"}},{"type":"Feature","id":15,"geometry":{"type":"Point","coordinates":[6.5524032504177674,52.20192152591946]},"properties":{"OBJECTID":15,"naam":"Noorse Esdoorn"}},{"type":"Feature","id":16,"geometry":{"type":"Point","coordinates":[6.5535996037714215,52.202135221149632]},"properties":{"OBJECTID":16,"naam":"Doodsbeenderenboom"}},{"type":"Feature","id":17,"geometry":{"type":"Point","coordinates":[6.5538507155527679,52.202060321472047]},"properties":{"OBJECTID":17,"naam":"emelboom"}},{"type":"Feature","id":18,"geometry":{"type":"Point","coordinates":[6.5539275768955889,52.202172465406534]},"properties":{"OBJECTID":18,"naam":"Japanse Notenboom"}},{"type":"Feature","id":19,"geometry":{"type":"Point","coordinates":[6.5541615647120643,52.202275918937382]},"properties":{"OBJECTID":19,"naam":"Hopbeuk"}},{"type":"Feature","id":20,"geometry":{"type":"Point","coordinates":[6.5545093046886009,52.202454814164021]},"properties":{"OBJECTID":20,"naam":"Zomereik"}},{"type":"Feature","id":21,"geometry":{"type":"Point","coordinates":[6.5545944846264295,52.202532874055088]},"properties":{"OBJECTID":21,"naam":"Zomereik"}},{"type":"Feature","id":22,"geometry":{"type":"Point","coordinates":[6.5548462635151585,52.202692862339141]},"properties":{"OBJECTID":22,"naam":"Zomereik"}},{"type":"Feature","id":23,"geometry":{"type":"Point","coordinates":[6.5549689027522993,52.20277859802566]},"properties":{"OBJECTID":23,"naam":"Zomereik"}},{"type":"Feature","id":24,"geometry":{"type":"Point","coordinates":[6.5550820588451595,52.202824845919146]},"properties":{"OBJECTID":24,"naam":"Zomereik"}},{"type":"Feature","id":25,"geometry":{"type":"Point","coordinates":[6.5551974306470857,52.202874965660875]},"properties":{"OBJECTID":25,"naam":"Zomereik"}},{"type":"Feature","id":26,"geometry":{"type":"Point","coordinates":[6.5565548087927343,52.202605220076101]},"properties":{"OBJECTID":26,"naam":"Japanse Notenboom"}},{"type":"Feature","id":29,"geometry":{"type":"Point","coordinates":[6.5567212670553436,52.202343632646738]},"properties":{"OBJECTID":29,"naam":"Zwarte Els"}},{"type":"Feature","id":30,"geometry":{"type":"Point","coordinates":[6.5573739344297426,52.202195774264275]},"properties":{"OBJECTID":30,"naam":"Gewone Beuk"}},{"type":"Feature","id":31,"geometry":{"type":"Point","coordinates":[6.5552883046422039,52.201210089929361]},"properties":{"OBJECTID":31,"naam":"Corsicaanse Den"}},{"type":"Feature","id":32,"geometry":{"type":"Point","coordinates":[6.5553597384785354,52.200898953706627]},"properties":{"OBJECTID":32,"naam":"Ruwe Berk"}},{"type":"Feature","id":33,"geometry":{"type":"Point","coordinates":[6.5548744027765427,52.200834521075571]},"properties":{"OBJECTID":33,"naam":"Tulpenboom"}},{"type":"Feature","id":34,"geometry":{"type":"Point","coordinates":[6.5546600471621614,52.200804664390951]},"properties":{"OBJECTID":34,"naam":"Esdoorn"}},{"type":"Feature","id":35,"geometry":{"type":"Point","coordinates":[6.5544168308661588,52.200769013707514]},"properties":{"OBJECTID":35,"naam":"Valse Christusdoorn"}},{"type":"Feature","id":36,"geometry":{"type":"Point","coordinates":[6.5541448166093756,52.200749284799123]},"properties":{"OBJECTID":36,"naam":"Anna Paulownaboom"}},{"type":"Feature","id":37,"geometry":{"type":"Point","coordinates":[6.5548602312232465,52.200209150219059]},"properties":{"OBJECTID":37,"naam":"Noorse Esdoorn"}},{"type":"Feature","id":38,"geometry":{"type":"Point","coordinates":[6.5549350712452181,52.200681772715036]},"properties":{"OBJECTID":38,"naam":"Hollandse Linde"}},{"type":"Feature","id":39,"geometry":{"type":"Point","coordinates":[6.5550462587823564,52.200451620283921]},"properties":{"OBJECTID":39,"naam":"Hollandse Linde"}},{"type":"Feature","id":40,"geometry":{"type":"Point","coordinates":[6.5550417810145802,52.199922987300702]},"properties":{"OBJECTID":40,"naam":"Papierberk"}},{"type":"Feature","id":41,"geometry":{"type":"Point","coordinates":[6.5549430597918539,52.19981804271562]},"properties":{"OBJECTID":41,"naam":"Trompetboom"}},{"type":"Feature","id":42,"geometry":{"type":"Point","coordinates":[6.5549215384500323,52.199762452305563]},"properties":{"OBJECTID":42,"naam":"Trompetboom"}},{"type":"Feature","id":43,"geometry":{"type":"Point","coordinates":[6.55490638660934,52.199708096836275]},"properties":{"OBJECTID":43,"naam":"Trompetboom"}},{"type":"Feature","id":44,"geometry":{"type":"Point","coordinates":[6.5546222189314234,52.199300175138703]},"properties":{"OBJECTID":44,"naam":"Plataan"}},{"type":"Feature","id":45,"geometry":{"type":"Point","coordinates":[6.554535871451928,52.199350138667029]},"properties":{"OBJECTID":45,"naam":"Plataan"}},{"type":"Feature","id":46,"geometry":{"type":"Point","coordinates":[6.5544126091947295,52.199368783106713]},"properties":{"OBJECTID":46,"naam":"Plataan"}},{"type":"Feature","id":47,"geometry":{"type":"Point","coordinates":[6.5543382539922046,52.199503089736218]},"properties":{"OBJECTID":47,"naam":"Spaanse Aak"}},{"type":"Feature","id":48,"geometry":{"type":"Point","coordinates":[6.5541761287732392,52.199506021348576]},"properties":{"OBJECTID":48,"naam":"Krenteboom"}},{"type":"Feature","id":49,"geometry":{"type":"Point","coordinates":[6.5529579769679414,52.200233855804839]},"properties":{"OBJECTID":49,"naam":"Acacia"}},{"type":"Feature","id":50,"geometry":{"type":"Point","coordinates":[6.552932358203889,52.200338663871229]},"properties":{"OBJECTID":50,"naam":"Acacia"}},{"type":"Feature","id":51,"geometry":{"type":"Point","coordinates":[6.5528857066777633,52.20042783806548]},"properties":{"OBJECTID":51,"naam":"Acacia"}},{"type":"Feature","id":52,"geometry":{"type":"Point","coordinates":[6.552763633713333,52.200590628014247]},"properties":{"OBJECTID":52,"naam":"Acacia"}},{"type":"Feature","id":53,"geometry":{"type":"Point","coordinates":[6.5526630169477587,52.200686672010619]},"properties":{"OBJECTID":53,"naam":"Acacia"}},{"type":"Feature","id":54,"geometry":{"type":"Point","coordinates":[6.5525644411333799,52.200762100981883]},"properties":{"OBJECTID":54,"naam":"Acacia"}},{"type":"Feature","id":55,"geometry":{"type":"Point","coordinates":[6.5524629537805863,52.200824885521662]},"properties":{"OBJECTID":55,"naam":"Acacia"}},{"type":"Feature","id":56,"geometry":{"type":"Point","coordinates":[6.5523662502371609,52.200873364958881]},"properties":{"OBJECTID":56,"naam":"Acacia"}},{"type":"Feature","id":57,"geometry":{"type":"Point","coordinates":[6.5515920870679212,52.201158057238047]},"properties":{"OBJECTID":57,"naam":"Taxus"}},{"type":"Feature","id":58,"geometry":{"type":"Point","coordinates":[6.5514774275380683,52.201159111014384]},"properties":{"OBJECTID":58,"naam":"Acacia"}},{"type":"Feature","id":59,"geometry":{"type":"Point","coordinates":[6.5513711169245727,52.201172488457033]},"properties":{"OBJECTID":59,"naam":"Acacia"}},{"type":"Feature","id":60,"geometry":{"type":"Point","coordinates":[6.5511257842050012,52.201237406919851]},"properties":{"OBJECTID":60,"naam":"Witte Paardenkastanje"}}]}